{"business_id":"vLT1KtrA9bWvjFOg-0xVIg","name":"Pieology Pizzeria","latitude":34.4304533,"longitude":-119.8723449,"categories":"Restaurants, Gluten-Free, Pizza, Vegan, Fast Food","stars":3.5,"review_count":131,"new_rating":3.4664179104}
{"business_id":"iHdrLu8deF5GceB0V1rPhA","name":"Oliver's","latitude":34.4213337,"longitude":-119.6449814,"categories":"American (Traditional), Vegan, Restaurants","stars":4.5,"review_count":313,"new_rating":4.4762658228}
{"business_id":"Js3m_GdqNUGnEgXJ8WMtfQ","name":"Hana Kitchen","latitude":34.416504,"longitude":-119.6956177,"categories":"Bubble Tea, Restaurants, Food, Asian Fusion, Vegan, Acai Bowls","stars":3.0,"review_count":253,"new_rating":2.98828125}
{"business_id":"GBD-YjcOD1nG0wv4L0Lvfg","name":"Venus in Furs","latitude":34.4182166,"longitude":-119.6961201,"categories":"American (Traditional), Restaurants, Wine Bars, Pizza, Cocktail Bars, Bars, Vegan, Nightlife","stars":5.0,"review_count":24,"new_rating":4.6666666667}
{"business_id":"Ksz_jsyyK3Zjlq_Cz81ZBA","name":"Adama Vegan Comfort Cuisine","latitude":34.415687561,"longitude":-119.6960067749,"categories":"Restaurants, Vegetarian, Vegan","stars":4.0,"review_count":238,"new_rating":3.9751037344}
{"business_id":"IZZ7J14VnJGyUqYH1tgT6w","name":"Satellite","latitude":34.4226158,"longitude":-119.7040291,"categories":"Restaurants, Vegan, Tapas\/Small Plates, Vegetarian, Bars, Farmers Market, Beer, Wine & Spirits, Beer Bar, Food, Cafes, Nightlife, Wine Bars","stars":4.5,"review_count":159,"new_rating":4.4537037037}
{"business_id":"UiJiURqivPDuvMsFgRF3yQ","name":"The Honey B","latitude":34.4193355,"longitude":-119.6958223,"categories":"Vegetarian, Gluten-Free, Food, Restaurants, Coffee & Tea, American (New), Vegan, Cafes","stars":4.5,"review_count":215,"new_rating":4.4655963303}
{"business_id":"Ul2yz_C9n-FOWxRdXaKeQg","name":"Santa Barbara Hives","latitude":34.3933431,"longitude":-119.5191105,"categories":"Cheese Shops, Food, Arts & Crafts, Home Decor, Vegan, Honey, Restaurants, Souvenir Shops, Specialty Food, Wildlife Control, Home & Garden, Shopping, Local Services, Pest Control","stars":5.0,"review_count":5,"new_rating":3.875}
{"business_id":"-I7M6l0h46VdiN09Y1NUZw","name":"Apna Indian Kitchen","latitude":34.4192388,"longitude":-119.6983869,"categories":"Gluten-Free, Gastropubs, Vegan, Restaurants, Indian","stars":4.5,"review_count":246,"new_rating":4.4698795181}
{"business_id":"Lj1goFC0ar8bfmsoHhGVbg","name":"Taco Tuyo","latitude":34.420334,"longitude":-119.7107494,"categories":"Food Trucks, Food, Food Delivery Services, Tacos, Mexican, Event Planning & Services, Restaurants, Vegan, Caterers","stars":4.5,"review_count":13,"new_rating":4.03125}
{"business_id":"ZrxlfdFU_qpnIHI2DmoRxA","name":"Mesa Pizza","latitude":34.4005756,"longitude":-119.7227184,"categories":"Pizza, Restaurants, Italian, Vegan, Gluten-Free, Sandwiches","stars":4.0,"review_count":176,"new_rating":3.9664804469}
{"business_id":"Nbht3URjeV94507do0goEw","name":"Pressed","latitude":34.4189924525,"longitude":-119.7000565007,"categories":"Ice Cream & Frozen Yogurt, Juice Bars & Smoothies, Convenience Stores, Vegan, Food, Health Markets, Specialty Food, Restaurants","stars":4.5,"review_count":111,"new_rating":4.4342105263}
{"business_id":"qvXw3V4_9Pu4E7Qoi7-cKA","name":"Fala Bar","latitude":34.4236075,"longitude":-119.7070539,"categories":"Restaurants, Vegan, Gluten-Free, Falafel, Mediterranean, Salad, Sandwiches","stars":4.5,"review_count":70,"new_rating":4.397260274}
{"business_id":"3n7VGTZQKyWycuhU_j0lqA","name":"Alchemy Wellness Spa","latitude":34.4158009,"longitude":-119.6964624,"categories":"Skin Care, Cafes, Fitness & Instruction, Vegan, Vegetarian, Active Life, Restaurants, Acupuncture, Health & Medical, Massage, Day Spas, Beauty & Spas, Weight Loss Centers, Yoga","stars":4.0,"review_count":58,"new_rating":3.9016393443}
{"business_id":"ZJzlns_dFkapVajmdFHGuw","name":"Embermill","latitude":34.4220535,"longitude":-119.7031354,"categories":"Caribbean, Restaurants, Gluten-Free, Cajun\/Creole, Vegan","stars":4.5,"review_count":211,"new_rating":4.464953271}
{"business_id":"TVX2a4bVuCE2VUIkiLdZrQ","name":"Flavor of India","latitude":34.4406128,"longitude":-119.729371,"categories":"Pakistani, Restaurants, Buffets, Seafood, Halal, Indian, Vegetarian, Vegan, Food, Salad, Desserts","stars":4.0,"review_count":501,"new_rating":3.9880952381}
{"business_id":"Sp4HOjXy-LYV_4yy10L3jg","name":"Modern Times Academy of Recreational Sciences","latitude":34.416541,"longitude":-119.6945756,"categories":"Beer Bar, Breakfast & Brunch, Vegan, Bars, Nightlife, Restaurants","stars":4.5,"review_count":74,"new_rating":4.4025974026}
{"business_id":"PR9GKW_tKuQGIAB_aeFPJw","name":"Ike's Place","latitude":34.4118810161,"longitude":-119.8549751457,"categories":"Restaurants, Sandwiches, Vegan, Delis, Gluten-Free","stars":4.0,"review_count":161,"new_rating":3.9634146341}
{"business_id":"RRGLss4hhvZZuR0N6GQlSw","name":"Nook","latitude":34.4157328,"longitude":-119.6884605,"categories":"Soul Food, Wine Tasting Room, Food, Restaurants, Arts & Entertainment, Vegan, Mexican, American (Traditional), Nightlife, Wineries, Bars","stars":4.0,"review_count":208,"new_rating":3.971563981}
{"business_id":"hFYKu5SujPYf_tmnoiKozw","name":"Pressed","latitude":34.422759,"longitude":-119.651859,"categories":"Specialty Food, Convenience Stores, Juice Bars & Smoothies, Health Markets, Restaurants, Food, Vegan, Ice Cream & Frozen Yogurt","stars":4.5,"review_count":28,"new_rating":4.2580645161}
{"business_id":"-9r8nAzWyRSLxBWt8uQOdA","name":"Hana Kitchen","latitude":34.4132518226,"longitude":-119.8564651292,"categories":"Vegan, Asian Fusion, Bubble Tea, Restaurants, Japanese, Mexican, Tacos, Vegetarian, Food","stars":3.0,"review_count":328,"new_rating":2.9909365559}
{"business_id":"enl5_0c6njSeiG2ZgieQJA","name":"Sharky's Woodfired Mexican Grill","latitude":34.431177,"longitude":-119.8740628,"categories":"Mexican, Restaurants, Food, Organic Stores, Caterers, Event Planning & Services, Vegan","stars":4.0,"review_count":103,"new_rating":3.9433962264}
{"business_id":"3rzlcCvPUJ56jvYWl7iGvA","name":"Modern Times Kitchen","latitude":34.416536,"longitude":-119.694577,"categories":"Vegan, American (New), Restaurants","stars":4.5,"review_count":54,"new_rating":4.3684210526}
{"business_id":"E1b_hNr22N2wGkq5Z9fmHw","name":"Juice Ranch","latitude":34.4207816,"longitude":-119.6449207,"categories":"Restaurants, Food, Live\/Raw Food, Juice Bars & Smoothies, Vegan","stars":3.5,"review_count":21,"new_rating":3.3125}
{"business_id":"Qsd_S2f7fNFqngx2amRE7A","name":"Sojourner Cafe","latitude":34.4224368533,"longitude":-119.6984024894,"categories":"Sandwiches, Vegan, Cafes, Vegetarian, Restaurants","stars":4.0,"review_count":276,"new_rating":3.9784946237}
{"business_id":"XgehM3pBZWuXi45J2dqRJQ","name":"Green Table","latitude":34.4178719,"longitude":-119.7007018,"categories":"Juice Bars & Smoothies, Restaurants, Food, Vegan, Cafes, Bakeries, Coffee & Tea, Gluten-Free, Vegetarian, Acai Bowls","stars":4.5,"review_count":319,"new_rating":4.4767080745}
{"business_id":"DEmAmcR4xNilT5WY5ImEFA","name":"Vegan GreenGO","latitude":34.440123,"longitude":-119.740862,"categories":"Mexican, Vegan, Restaurants, Vegetarian","stars":4.0,"review_count":273,"new_rating":3.9782608696}
{"business_id":"04Ss49U_QKYLotcJMAH8cA","name":"Ike\u2019s Love & Sandwiches","latitude":34.430741422,"longitude":-119.7142658272,"categories":"Vegan, Vegetarian, Sandwiches, Restaurants","stars":4.0,"review_count":97,"new_rating":3.94}
{"business_id":"UQZe-qWOpGiyEPsTUko5Rg","name":"Rascal's Vegan Food","latitude":34.4182166,"longitude":-119.6961201,"categories":"Restaurants, Vegan","stars":4.5,"review_count":25,"new_rating":4.2321428571}
{"business_id":"lNkxXDcNoHBpWDNPoZesYw","name":"Caruso's","latitude":34.4205315,"longitude":-119.6281158,"categories":"Vegan, Restaurants, Italian","stars":4.0,"review_count":88,"new_rating":3.9340659341}
{"business_id":"yghgUguk26YykduF52CDdg","name":"Chamomile Cafe & Bakery","latitude":34.398644,"longitude":-119.519186,"categories":"Food, Bakeries, Restaurants, Vegan, American (New)","stars":3.0,"review_count":12,"new_rating":2.8}
{"business_id":"GuzbBFraIq-fbkjfvaTRvg","name":"Mesa Verde","latitude":34.4013485,"longitude":-119.7230803,"categories":"Garage Door Services, Restaurants, Live\/Raw Food, Food, Home Services, Mediterranean, Keys & Locksmiths, Burgers, Vegetarian, Juice Bars & Smoothies, Vegan, Salad","stars":4.5,"review_count":1796,"new_rating":4.4958310172}
{"business_id":"xkS_mRHVHuX0ko6kVIyBdA","name":"Masala Spice Indian Cuisine","latitude":34.4416666,"longitude":-119.8257605,"categories":"Vegan, Vegetarian, Restaurants, Indian","stars":4.0,"review_count":245,"new_rating":3.9758064516}
{"business_id":"B3dzK9OqrT_sN0FNQs_OgQ","name":"Spiritland Bistro","latitude":34.427135,"longitude":-119.702428,"categories":"Restaurants, Vegetarian, French, Vegan, Seafood, Asian Fusion, Gluten-Free, American (New)","stars":4.0,"review_count":51,"new_rating":3.8888888889}
{"business_id":"izSgTrqebu8bN8ONOCs6cQ","name":"Oat Bakery","latitude":34.4165478074,"longitude":-119.6956258296,"categories":"Bakeries, Vegan, Specialty Food, Food Delivery Services, Food, Coffee & Tea, Gluten-Free, Farmers Market, Restaurants, Organic Stores","stars":5.0,"review_count":123,"new_rating":4.9285714286}
